[
  {
    "lat": "-33.8967062",
    "lng": "151.1800833",
    "id": 3434042,
    "name": "A + H rubi salon",
    "phone": "02 95577787",
    "address": "Level 5 292 King St",
    "country": "Australia",
    "state": "NSW",
    "postal": "2042"
  },
  {
    "lat": "-37.9367762",
    "lng": "145.0697417",
    "id": 3434043,
    "name": "Ahead Hair & Beauty Pty Ltd",
    "phone": "03 90775013",
    "address": "11 Scanlan St, Melbourne, Bentleigh East",
    "country": "Australia",
    "state": "VIC",
    "postal": "3165"
  },
  {
    "lat": "-37.9929515",
    "lng": "145.0773569",
    "id": 3434044,
    "name": "Alarah Hair Studio",
    "phone": "039 5872579",
    "address": "Off 1\\\/131 Parkers Rd, Parkdale",
    "country": "Australia",
    "state": "VIC",
    "postal": "3195"
  },
  {
    "lat": "-37.921209",
    "lng": "145.058168",
    "id": 3434045,
    "name": "Aldo's Hairdressing",
    "phone": "03 95792377",
    "address": "722 Centre Rd, Melbourne, Bentleigh East",
    "country": "Australia",
    "state": "VIC",
    "postal": "3165"
  },
  {
    "lat": "-37.8388841",
    "lng": "144.9943537",
    "id": 3434046,
    "name": "Allure Hairdressing South Yarra",
    "phone": "98271110",
    "address": "U 1\\\/209 Toorak Rd, Melbourne, South Yarra",
    "country": "Australia",
    "state": "VIC",
    "postal": "3141"
  },
  {
    "lat": "-33.8722019",
    "lng": "151.2235238",
    "id": 3434047,
    "name": "Almeida",
    "phone": "452399869",
    "address": "2 Springfield aveune",
    "country": "australia",
    "state": "nsw",
    "postal": "2011"
  },
  {
    "lat": "-37.9751675",
    "lng": "145.0159892",
    "id": 3434048,
    "name": "Baileys Hair Salon",
    "phone": "03 9589 5045",
    "address": "2\\\/1 Bluff road, Black rock",
    "state": "VIC",
    "postal": "3193"
  },
  {
    "lat": "-33.9059425",
    "lng": "151.2591778",
    "id": 3434049,
    "name": "barber x bar",
    "address": "Unit 2  190 Arden St",
    "country": "Australia",
    "state": "NSW",
    "postal": "2034"
  },
  {
    "lat": "-37.9829264",
    "lng": "145.0645779",
    "id": 3434050,
    "name": "Bartolo salon",
    "address": "52 Florence St",
    "country": "Australia",
    "state": "VIC",
    "postal": "3194"
  },
  {
    "lat": "-34.92526",
    "lng": "138.501148",
    "id": 3434051,
    "name": "Beach Street Hair",
    "phone": "(08) 8356 8940",
    "address": "3\/49 Henley Beach Rd, Henley Beach South",
    "country": "Australia",
    "state": " SA",
    "postal": "5022"
  },
  {
    "lat": "-35.3159428",
    "lng": "149.1418522",
    "id": 3434052,
    "name": "Bond Hair Religion",
    "phone": "02 6295 8073",
    "address": "Shop 6 Green Square , 68 Jardine St, Kingston",
    "country": "Australia",
    "state": "ACT",
    "postal": "2604"
  },
  {
    "lat": "-33.8841408",
    "lng": "151.2127372",
    "id": 3434053,
    "name": "Canvas Hair Pty Ltd",
    "phone": "02 93604110",
    "address": "351 Riley St",
    "country": "Australia",
    "state": "NSW",
    "postal": "2010"
  },
  {
    "lat": "-37.9863313",
    "lng": "145.0349331",
    "id": 3434054,
    "name": "Carmine & co is trustee for Soriano family trust",
    "phone": "03 95894943",
    "address": "22 East Concourse",
    "country": "Australia",
    "state": "VIC",
    "postal": "3193"
  },
  {
    "lat": "-37.830482",
    "lng": "144.9708551",
    "id": 3434055,
    "name": "Charlie salon",
    "phone": "03 95936082",
    "address": "336 St Kilda Rd",
    "country": "Australia",
    "state": "VIC",
    "postal": "3182"
  },
  {
    "lat": "-37.8450621",
    "lng": "144.9939394",
    "id": 3434056,
    "name": "Colin Moxey Hairdressing",
    "phone": "9826 8884",
    "address": "53 Barry St, Melbourne, South Yarra",
    "country": "Australia",
    "state": "VIC",
    "postal": "3141"
  },
  {
    "lat": "-41.4370458",
    "lng": "147.1389171",
    "id": 3434057,
    "name": "Convict cutters",
    "phone": "03 6334 4003",
    "address": "87a St John St",
    "country": "Australia",
    "state": "TAS",
    "postal": "7250"
  },
  {
    "lat": "-33.863913",
    "lng": "151.169235",
    "id": 3434058,
    "name": "DEMON BARBER",
    "phone": "(02) 9555 9448",
    "address": "695 Darling St, Rozelle",
    "country": "australia",
    "state": " NSW",
    "postal": "2039"
  },
  {
    "lat": "-35.2501611",
    "lng": "149.1376416",
    "id": 3434059,
    "name": "Eden Hair And Beauty Pty Limited",
    "address": "U 1\\\/29 Badham St, Canberra, Dickson",
    "country": "Australia",
    "state": "ACT",
    "postal": "2602"
  },
  {
    "lat": "-27.469137",
    "lng": "153.008242",
    "id": 3434060,
    "name": "ESQ MALE GROOMING ",
    "phone": "(07) 3369 3063",
    "address": "SHOP 4B 19\/23 Cribb St, Milton",
    "country": "Australia",
    "state": "QLD",
    "postal": "4064"
  },
  {
    "lat": "-27.468637",
    "lng": "153.026901",
    "id": 3434061,
    "name": "ESQ Male Grooming Barber & supplies CITY",
    "address": "Shop 5a, Tattersall's Arcade, 202-210 Edward Street, Brisbane City",
    "country": "Australia",
    "state": "QLD",
    "postal": "4000"
  },
  {
    "lat": "-37.9842496",
    "lng": "145.1336519",
    "id": 3434062,
    "name": "Eva Rose",
    "phone": "95513737",
    "address": "7\\\/79 Pethybridge Cl, Dingley",
    "country": "Australia",
    "state": "VIC",
    "postal": "3172"
  },
  {
    "lat": "-35.2792918",
    "lng": "149.1302939",
    "id": 3434063,
    "name": "Franco of Canberra",
    "phone": "02 6247 9560",
    "address": "15 East Row",
    "country": "Australia",
    "state": "ACT",
    "postal": "2601"
  },
  {
    "lat": "-33.8750662",
    "lng": "151.2164597",
    "id": 3434064,
    "name": "Gallo Hair",
    "phone": "02 93601197",
    "address": "132 Crown St, Sydney, Darlinghurst",
    "country": "Australia",
    "state": "NSW",
    "postal": "2010"
  },
  {
    "lat": "-33.8816609",
    "lng": "151.2166792",
    "id": 3434065,
    "name": "Ginardi Hairdressing & Beauty Pty. Ltd.",
    "phone": "02 9331 5911",
    "address": "314 Bourke St, Surry Hills",
    "country": "Australia",
    "state": "NSW",
    "postal": "2010"
  },
  {
    "lat": "-33.875377",
    "lng": "151.2246791",
    "id": 3434066,
    "name": "Groom men",
    "phone": "02 93322273",
    "address": "51-57 Bayswater Rd",
    "country": "Australia",
    "state": "NSW",
    "postal": "2011"
  },
  {
    "lat": "-33.896077",
    "lng": "151.181184",
    "id": 3434067,
    "name": "GUILLES SALON ",
    "phone": "0414 727 182",
    "address": "30-34 Wilson St, Newtown",
    "country": "Australia",
    "state": "NSW",
    "postal": "2042"
  },
  {
    "lat": "-37.8316491",
    "lng": "145.057932",
    "id": 3434068,
    "name": "Haircare works",
    "phone": "98222770",
    "address": "524 Riversdale Rd",
    "country": "Australia",
    "state": "VIC",
    "postal": "3124"
  },
  {
    "lat": "-37.8135249",
    "lng": "145.0229629",
    "id": 3434069,
    "name": "Head On Hairdressing Salon",
    "phone": "03 9853 7275",
    "address": "12 Church St, Melbourne, Hawthorn",
    "country": "Australia",
    "state": "VIC",
    "postal": "3122"
  },
  {
    "lat": "-33.8847514",
    "lng": "151.2261699",
    "id": 3434070,
    "name": "Headcase",
    "phone": "02- 93809988",
    "address": "242 Oxford St,Paddington PADDINGTON NSW 2021 Australia",
    "country": "Australia",
    "postal": "2021"
  },
  {
    "lat": "-34.7522879",
    "lng": "149.7200719",
    "id": 3434071,
    "name": "Headlines hair & beauty salon",
    "address": "282 Auburn St",
    "country": "Australia",
    "state": "NSW",
    "postal": "2580"
  },
  {
    "lat": "-38.1736503",
    "lng": "144.3439366",
    "id": 3434072,
    "name": "Hunter Barbershop",
    "phone": "52416596",
    "address": "Shop 2  152 High St",
    "country": "Australia",
    "state": "VIC",
    "postal": "3216"
  },
  {
    "lat": "-33.9117697",
    "lng": "151.2539429",
    "id": 3434073,
    "name": "In Mode Hair",
    "address": "218 Clovelly Rd, Sydney, Randwick",
    "country": "Australia",
    "state": "NSW",
    "postal": "2031"
  },
  {
    "lat": "-42.8839772",
    "lng": "147.3281101",
    "id": 3434074,
    "name": "Jakadjari hair Australia",
    "phone": "03 62369555",
    "address": "32 Murray St, Greater Hobart, Hobart",
    "country": "Australia",
    "state": "TAS",
    "postal": "7000"
  },
  {
    "lat": "-35.239412",
    "lng": "149.068357",
    "id": 3434075,
    "name": "JB The Gentleman's Barber",
    "phone": "(02) 6101 4674",
    "address": "Ground floor Unit 6, Sentinel Apartments, 39 Benjamin Way, Belconnen",
    "country": "Australia",
    "state": "ACT",
    "postal": "2617"
  },
  {
    "lat": "-33.8889656",
    "lng": "151.2329878",
    "id": 3434076,
    "name": "jimmy snips",
    "address": "12a\/2a Queen St",
    "country": "Australia",
    "state": "NSW",
    "postal": "2025"
  },
  {
    "lat": "-33.884104",
    "lng": "151.27631",
    "id": 3434077,
    "name": "JUDENA HAIR SALON BONDI",
    "phone": "(02) 9365 6104",
    "address": "48 Mitchell St, North Bondi",
    "country": "Australia",
    "state": "NSW",
    "postal": "2026"
  },
  {
    "lat": "-33.7125336",
    "lng": "150.9573707",
    "id": 3434078,
    "name": "JW HAIR",
    "phone": "02 8883 4157",
    "address": "Unit 8  50-52 Windsor Rd",
    "country": "Australia",
    "state": "NSW",
    "postal": "2155"
  },
  {
    "lat": "-37.85085",
    "lng": "144.99426",
    "id": 3434079,
    "name": "KARLOSE JAMES ",
    "phone": "03) 9521 7534",
    "address": "10 Anchor Pl, Prahran",
    "country": "Australia",
    "state": " VIC",
    "postal": "3181"
  },
  {
    "lat": "-37.853204",
    "lng": "145.043305",
    "id": 3434080,
    "name": "Koto Hair",
    "address": "1469-1471 Malvern Rd",
    "country": "Australia",
    "state": "VIC",
    "postal": "3146"
  },
  {
    "lat": "-35.2758892",
    "lng": "149.1271682",
    "id": 3434081,
    "name": "La Bimbi City Central Pty Ltd",
    "address": "3\\\/60 Marcus Clarke St, City",
    "country": "Australia",
    "state": "ACT",
    "postal": "2601"
  },
  {
    "lat": "-35.2356301",
    "lng": "149.0654328",
    "id": 3434082,
    "name": "La Bimbi Hair",
    "phone": "02 6251 9555",
    "address": "61\/1 Beisell St",
    "country": "Australia",
    "state": "ACT",
    "postal": "2617"
  },
  {
    "lat": "-37.862911",
    "lng": "144.902972",
    "id": 3434083,
    "name": "La bodega barbershop & shave parlour ",
    "phone": "0415 428 945",
    "address": "1 Cole St, Williamstown",
    "country": "Australia",
    "state": " VIC",
    "postal": "3016"
  },
  {
    "lat": "-37.757176",
    "lng": "145.346594",
    "id": 3434084,
    "name": "LEFTY’S BARBERSHOP",
    "phone": "(03) 8288 1960",
    "address": "94 Main St, Lilydale",
    "country": "Australia",
    "state": "VIC",
    "postal": "3140"
  },
  {
    "lat": "-37.7873584",
    "lng": "144.9922936",
    "id": 3434085,
    "name": "Luke Perger Hair",
    "address": "402 Queens Pde",
    "country": "Australia",
    "state": "VIC",
    "postal": "3068"
  },
  {
    "lat": "-34.9446386",
    "lng": "138.6217034",
    "id": 3434086,
    "name": "Mabe Hair",
    "address": "100 Glen Osmond rd",
    "country": "Australia",
    "state": "SA",
    "postal": "5063"
  },
  {
    "lat": "-37.918356",
    "lng": "145.039279",
    "id": 3434087,
    "name": "MAIN STREET BARBERS & CO",
    "phone": "(03) 9557 7476",
    "address": "425 Centre Rd, Bentleigh",
    "country": "Australia",
    "state": "VIC",
    "postal": "3204"
  },
  {
    "lat": "-37.8508207",
    "lng": "144.9930685",
    "id": 3434088,
    "name": "Mancini's Hair & Beyond",
    "phone": "95105640",
    "address": "Shop 3\\\/217 Chapel St, Melbourne, Prahran",
    "country": "Australia",
    "state": "VIC",
    "postal": "3181"
  },
  {
    "lat": "-33.866126",
    "lng": "151.208841",
    "id": 3434089,
    "name": "MANIPULATE HAIR STUDIO ",
    "phone": "(02) 9232 4268",
    "address": "4\/72 Pitt St, Sydney",
    "country": "Australia",
    "state": "NSW",
    "postal": "2000"
  },
  {
    "lat": "-37.991538",
    "lng": "145.040888",
    "id": 3434090,
    "name": "MARC & MARC HAIRDRESSING ",
    "phone": "(03) 9589 1474",
    "address": "20 Keys St, Beaumaris",
    "country": "australia",
    "state": "VIC",
    "postal": "3193"
  },
  {
    "lat": "-34.04378",
    "lng": "151.123323",
    "id": 3434091,
    "name": "MARDI SALON",
    "phone": "(02) 9526 8438",
    "address": "363 Port Hacking Rd, Caringbah",
    "country": "Australia",
    "state": "NSW",
    "postal": "2229"
  },
  {
    "lat": "-35.278061",
    "lng": "149.131017",
    "id": 3434092,
    "name": "MARTINO’S HAIR AND GROOMING FOR MEN ",
    "phone": "(02) 6257 5858",
    "address": "shop 10\/131 City Walk, Canberra",
    "country": "Australia",
    "state": "ACT",
    "postal": "2601"
  },
  {
    "lat": "33.883241",
    "lng": "151.211435",
    "id": 3434093,
    "name": "MAXWELL & CHARLIE",
    "phone": "0422 365 561",
    "address": "11 Albion Way, Surry Hills",
    "country": "Australia",
    "state": "NSW",
    "postal": "2010"
  },
  {
    "lat": "-37.9505325",
    "lng": "145.0359386",
    "id": 3434094,
    "name": "Meddlers",
    "address": "67 Toorak rd, SOUTH YARRA, VIC, 3141"
  },
  {
    "lat": "-25.274398",
    "lng": "133.775136",
    "id": 3434096,
    "name": "Mel's cutting and beauty room",
    "phone": "03 51765670",
    "address": "3\/27 Princes St",
    "country": "Australia",
    "state": "VIC",
    "postal": "3844"
  },
  {
    "lat": "-35.2367109",
    "lng": "149.0607422",
    "id": 3434097,
    "name": "MIKOS",
    "address": "7\\\/1 Rae street, Belconnen",
    "state": "ACT",
    "postal": "2617"
  },
  {
    "lat": "-33.8352485",
    "lng": "151.1559544",
    "id": 3434098,
    "name": "Milano Hair Studio",
    "phone": "02 80651130",
    "address": "Shop 5\\\/37 Alexandra St, Sydney, Hunters Hill",
    "country": "Australia",
    "state": "NSW",
    "postal": "2110"
  },
  {
    "lat": "-37.8414064",
    "lng": "144.9399649",
    "id": 3434099,
    "name": "Mode Hair",
    "phone": "03 96466449",
    "address": "92 Bay St, Melbourne, Port Melbourne",
    "country": "Australia",
    "state": "VIC",
    "postal": "3207"
  },
  {
    "lat": "37.4309",
    "lng": "144.5935",
    "id": 3434100,
    "name": "Mode Line hair ",
    "phone": "03 9478 5767",
    "address": "759 Gilbert Rd, Reservoir ",
    "country": "Australia",
    "state": "VIC",
    "postal": "3073"
  },
  {
    "lat": "-42.8800659",
    "lng": "147.3237159",
    "id": 3434101,
    "name": "Monks family trust",
    "phone": "03 62318300",
    "address": "136 Elizabeth street Hobart",
    "country": "Australia",
    "state": "TAS",
    "postal": "7000"
  },
  {
    "lat": "-33.8866684",
    "lng": "151.2134902",
    "id": 3434102,
    "name": "Muse Hair Pty Ltd",
    "phone": "02 9699 1137",
    "address": "429 Crown St, Sydney, Surry Hills",
    "country": "Australia",
    "state": "NSW",
    "postal": "2010"
  },
  {
    "lat": "-33.3329409",
    "lng": "115.6428986",
    "id": 3434103,
    "name": "My PHD",
    "phone": "02 91307358",
    "address": "120 Blair St",
    "country": "Australia",
    "state": "NSW",
    "postal": "2026"
  },
  {
    "lat": "-32.9330505",
    "lng": "151.7700207",
    "id": 3434104,
    "name": "Nesbitt Hair and Body",
    "phone": "02 49270075",
    "address": "192 Darby St",
    "country": "Australia",
    "state": "NSW",
    "postal": "2300"
  },
  {
    "lat": "-33.904551",
    "lng": "151.180252",
    "id": 3434105,
    "name": "NEW DO",
    "phone": "(02) 9519 8339",
    "address": "563 King St, Newtown",
    "country": "Australia",
    "state": "NSW",
    "postal": "2042"
  },
  {
    "lat": "-33.9047832",
    "lng": "151.180251",
    "id": 3434106,
    "name": "New Do Hairdressing Pty. Ltd.",
    "phone": "02 95198339",
    "address": "563 King St, Sydney, Newtown",
    "country": "Australia",
    "state": "NSW",
    "postal": "2042"
  },
  {
    "lat": "-35.2801371",
    "lng": "149.1253969",
    "id": 3434107,
    "name": "Off London Hair",
    "phone": "662576222",
    "address": "17-21 University Ave",
    "country": "Australia",
    "state": "Act",
    "postal": "2061"
  },
  {
    "lat": "-33.9026915",
    "lng": "151.2602254",
    "id": 3434108,
    "name": "One Room Number 1 Pty Limited",
    "phone": "029 3876545",
    "address": "Shop 1\\\/414 Bronte Rd, Sydney, Bronte",
    "country": "Australia",
    "state": "NSW",
    "postal": "2024"
  },
  {
    "lat": "-37.783331",
    "lng": "144.935072",
    "id": 3434109,
    "name": "Perfect image hair designers of hair",
    "phone": "93761177",
    "address": "133 Mt Alexander Rd",
    "country": "Australia",
    "state": "VIC",
    "postal": "3031"
  },
  {
    "lat": "-33.979957",
    "lng": "151.245387",
    "id": 3434110,
    "name": "PHD HAIR LITTLE BAY",
    "phone": "(02) 9921 1740",
    "address": "1b\/1 Pine Ave, Little Bay",
    "country": "australia",
    "state": "NSW",
    "postal": "2036"
  },
  {
    "lat": "-37.8207307",
    "lng": "145.1502801",
    "id": 3434111,
    "name": "Pride Concepts Pty. Ltd.",
    "phone": "03 9877 5560",
    "address": "70 S Parade, Blackburn",
    "country": "Australia",
    "state": "Vic",
    "postal": "3130"
  },
  {
    "lat": "-38.380607",
    "lng": "145.025378",
    "id": 3434112,
    "name": "Red Hill hair studio",
    "address": "Unit 11 159 Shoreham Rd",
    "country": "Australia",
    "state": "VIC",
    "postal": "3937"
  },
  {
    "lat": "-42.8923621",
    "lng": "147.3258596",
    "id": 3434113,
    "name": "Rhythm Haircutters",
    "phone": "03 632240210",
    "address": "Site 3\\\/117 Sandy Bay Rd, Greater Hobart, Sandy Bay",
    "country": "Australia",
    "state": "TAS",
    "postal": "7005"
  },
  {
    "lat": "-33.8705697",
    "lng": "151.1947369",
    "id": 3434114,
    "name": "Salon 27",
    "phone": "02 95719678",
    "address": "194 Harris St, Sydney, Pyrmont",
    "country": "Australia",
    "state": "NSW",
    "postal": "2009"
  },
  {
    "lat": "-42.8818486",
    "lng": "147.3289212",
    "id": 3434115,
    "name": "Salon Red",
    "phone": "03 62311757",
    "address": "29 Elizabeth St, Greater Hobart, Hobart",
    "country": "Australia",
    "state": "TAS",
    "postal": "7000"
  },
  {
    "lat": "-37.8678293",
    "lng": "144.9808467",
    "id": 3434116,
    "name": "sas hairdressing",
    "phone": "03 95344315",
    "address": "G03 173 Barkly street",
    "country": "australia",
    "state": "Victoria"
  },
  {
    "lat": "-37.829614",
    "lng": "145.057499",
    "id": 3434117,
    "name": "SECOND AVE HAIR AND BEAUTY",
    "address": "614, The Rear, Burke Rd, Camberwell",
    "country": "Australia",
    "state": "VIC",
    "postal": "3124"
  },
  {
    "lat": "-33.838004",
    "lng": "151.209121",
    "id": 3434118,
    "name": "SLOANS OF NORTH SYDNEY ",
    "phone": "(02) 9955 0077",
    "address": "3\/141 Walker St, North Sydney",
    "country": "Australia",
    "state": "NSW",
    "postal": "2060"
  },
  {
    "lat": "-42.8865907",
    "lng": "147.3355856",
    "id": 3434119,
    "name": "Some Hallucination",
    "phone": "03 62241555",
    "address": "83 Salamanca Pl, Greater Hobart, Battery Point",
    "country": "Australia",
    "state": "TAS",
    "postal": "7004"
  },
  {
    "lat": "-37.9774691",
    "lng": "145.0306797",
    "id": 3434120,
    "name": "Ssh Hair",
    "phone": "03 9589 5885",
    "address": "465 Balcombe Rd, Beaumaris",
    "country": "Australia",
    "state": "VIC",
    "postal": "3193"
  },
  {
    "lat": "-27.4478746",
    "lng": "153.0546577",
    "id": 3434121,
    "name": "Stephen Roney Hairdressing & Beauty",
    "phone": "03 63318061",
    "address": "53 Brisbane St",
    "country": "Australia",
    "state": "TAS",
    "postal": "7250"
  },
  {
    "lat": "-35.2726992",
    "lng": "149.1332414",
    "id": 3434122,
    "name": "Style And Beauty Within",
    "phone": "02 6251 1855",
    "address": "144 \\\/24 Lonsdale St, Canberra, Braddon",
    "country": "Australia",
    "state": "ACT",
    "postal": "2612"
  },
  {
    "lat": "-37.868275",
    "lng": "144.979385",
    "id": 3434123,
    "name": "SUITE J",
    "phone": "(03) 9534 7926",
    "address": "117 Acland St, St Kilda",
    "country": "Australia",
    "state": "VIC",
    "postal": "3182"
  },
  {
    "lat": "-38.0307727",
    "lng": "145.3481923",
    "id": 3434124,
    "name": "Sweeney todd's",
    "address": "Shop 7  4-6 Wheeler St",
    "country": "Australia",
    "state": "VIC",
    "postal": "3806"
  },
  {
    "lat": "-33.8723996",
    "lng": "151.2071178",
    "id": 3434125,
    "name": "Taj Barber",
    "phone": "02 9283 2662",
    "address": "500 George St",
    "country": "Australia",
    "state": "NSW",
    "postal": "2000"
  },
  {
    "lat": "-37.735347",
    "lng": "145.00419",
    "id": 3434126,
    "name": "TAPER & FADE ",
    "address": "561 High St, Preston",
    "country": "Australia",
    "state": "VIC",
    "postal": "3072"
  },
  {
    "lat": "-35.2892889",
    "lng": "149.1542105",
    "id": 3434127,
    "name": "The Avenue",
    "phone": "02 6249 1521",
    "address": "1\/32 Blamey Place",
    "country": "Australia",
    "state": "ACT",
    "postal": "2612"
  },
  {
    "lat": "-37.8198491",
    "lng": "144.9429946",
    "id": 3434128,
    "name": "The Barber Club ",
    "phone": "03 9939 3100",
    "address": "95 Merchant st, DOCKLANDS, VIC 3008"
  },
  {
    "lat": "-37.9505325",
    "lng": "145.0359386",
    "id": 3434129,
    "name": "The Barber Club ",
    "address": "375 Centre rd, BENTLEIGH, VIC 3204"
  },
  {
    "lat": "-33.8643718",
    "lng": "151.2103493",
    "id": 3434131,
    "name": "The Barberhood",
    "phone": "02 92474583",
    "address": "Wintergarden Plaza 1 O'connell St",
    "country": "Australia",
    "state": "NSW",
    "postal": "2000"
  },
  {
    "lat": "-33.912805",
    "lng": "151.239976",
    "id": 3434132,
    "name": "THE CHAIRMAN ",
    "phone": "(02) 9398 2202",
    "address": "175 Alison Rd, Randwick",
    "country": "Australia",
    "state": " NSW",
    "postal": "2031"
  },
  {
    "lat": "-37.8579922",
    "lng": "144.9810403",
    "id": 3434133,
    "name": "The Do Salon Pty Ltd",
    "phone": "9534 2522",
    "address": "171 Fitzroy St, St Kilda",
    "country": "Australia",
    "state": "VIC",
    "postal": "3182"
  },
  {
    "lat": "-34.923275",
    "lng": "138.595464",
    "id": 3434134,
    "name": "THE MENS ROOM",
    "phone": "(08) 8221 6228",
    "address": "109 Hindley St, Adelaide",
    "country": "Australia",
    "state": "SA",
    "postal": "5000"
  },
  {
    "lat": "-33.886217",
    "lng": "151.277426",
    "id": 3434135,
    "name": "The Stylist Bondi beach",
    "phone": "02 9130 1177",
    "address": "37 Gould St, Bondi Beach",
    "country": "Australia",
    "state": "NSW",
    "postal": "2026"
  },
  {
    "lat": "-33.886661",
    "lng": "151.210367",
    "id": 3434136,
    "name": "THE SUSTAINABLE SALON ",
    "phone": "(02) 9699 1111",
    "address": "54 Waterloo St, Surry Hills",
    "country": "Australia",
    "state": " NSW",
    "postal": "2010"
  },
  {
    "lat": "-33.884595",
    "lng": "151.179018",
    "id": 3434137,
    "name": "TIMOTHY MITCHELL INDEPENDENT HAIRDRESSER &MAKE UP ARTIST",
    "address": "23a barr street camperdown",
    "country": "Australia",
    "state": "NSW",
    "postal": "2050"
  },
  {
    "lat": "-34.922637",
    "lng": "138.603119",
    "id": 3434138,
    "name": "UNDERGROUND HAIRCUTTERS ",
    "phone": "(08) 8223 5352",
    "address": "95 Rundle Mall, Adelaide",
    "country": "Australia",
    "state": "SA",
    "postal": "5000"
  },
  {
    "lat": "-34.4793302",
    "lng": "150.4178635",
    "id": 3434139,
    "name": "United Culture",
    "phone": "02 46811115",
    "address": "312 Bong Bong St, Bowral",
    "country": "Australia",
    "state": "NSW",
    "postal": "2576"
  },
  {
    "lat": "-37.825582",
    "lng": "144.997217",
    "id": 3434140,
    "name": "URBAN MAN RICHMOND BARBERSHOP ",
    "phone": "(03) 9428 3563",
    "address": "226a Swan St, Cremorne",
    "country": "Australia",
    "state": "VIC",
    "postal": "3121"
  },
  {
    "lat": "-33.9005428",
    "lng": "151.2539839",
    "id": 3434141,
    "name": "Vincent & Dupree'",
    "address": "248-250 Bronte Rd, Sydney, Waverley",
    "country": "Australia",
    "state": "NSW",
    "postal": "2024"
  },
  {
    "lat": "-33.8652419",
    "lng": "151.212356",
    "id": 3434142,
    "name": "Wink Hair",
    "phone": "02 92472233",
    "address": "U 1\\\/155 Macquarie St, Sydney, Sydney",
    "country": "Australia",
    "state": "NSW",
    "postal": "2000"
  },
  {
    "lat": "-38.1962152",
    "lng": "146.5403579",
    "id": 3434143,
    "name": "Winston Brown Unisex Salon",
    "address": "2B Seymour St, Gippsland, Traralgon",
    "country": "Australia",
    "state": "VIC",
    "postal": "3844"
  },
  {
    "lat": "-33.823153",
    "lng": "151.201221",
    "id": 3434144,
    "name": "ZIRALI",
    "address": "Shop G04\/105 Willoughby Rd, Crows Nest",
    "country": "Australia",
    "state": "NSW",
    "postal": "2065"
  }
]